name;shortname;hashtag;homepage;type;tags;description;datestart;Month?;Day?;dateend;venue;city;country;lat;lng;OSM-Link;EntranceFee;ParticipantsLastTime;cfpdate;Month?;Day?;cfplink;coclink;approved
Free and Open Source Software Developers European Meeting;FOSDEM;fosdem;https://fosdem.org/;Conference,Community;development,security;<p>FOSDEM is a free event for software developers to meet, share ideas and collaborate.</p> <p>Every year, thousands of developers of free and open source software from all over the world gather at the event in Brussels.</p>;20190203;;;20190204;Université Libre Bruxelles;Brussels;BE;50.81328;4.37943;https://www.openstreetmap.org/?mlat=50.81295&mlon=4.38002#map=18/50.81295/4.38002;No;7500;20181013;;;https://fosdem.org/2019/news/2018-08-10-call-for-participation/;https://fosdem.org/2018/practical/conduct/;yes
Chaos Communication Camp;CCCamp;camp19;;Conference, Community, Camp, Festival;ccc;;20190821;;;20190825;Ziegeleimuseum Mildenberg;Mildenberg;DE;53.0306;13.3014;https://www.openstreetmap.org/#map=15/53.0306/13.3067;295;5000;20190611;;;https://events.ccc.de/2019/05/22/call-for-participation-chaos-communication-camp-2019/;;yes
OpenExpo Europe;OpenExpo;OpenExpo19;https://openexpoeurope.com/;Business, Conference, Fair;trends;An Open-IT fair that also runs Open Awards;20190620;;;20190620;La N@ve;Madrid;ES;40.34747;-3.69662;https://www.openstreetmap.org/way/37995038;40;3500;20190317;;;https://openexpoeurope.com/oe2019/call4papers/;No;yes
GNOME Users And Developers European Conference;GUADEC;guadec;https://2019.guadec.org/;Conference, Community, Unconference;Gnome;;20190823;;;20190828;University of Macedonia;Thessaloniki;GR;40.6247;22.9606;https://www.openstreetmap.org/way/14791176;No;?;20190519;;;https://www.gnome.org/news/2019/04/guadec-2019-call-for-papers/;https://2019.guadec.org/pages/code-of-conduct.html;yes
Free and Open Source Software Auditing ;EU-FOSSA2;FOSSA;https://eufossahackathon.bemyapp.com/;Hackathon, Public Administration;;The next EU-FOSSA 2 Hackathon, on 4/5th May, has broadened its scope. It will still have a large focus on Apache Tomcat, but will now also include other communities under the Apache Software Foundation (ASF). Aditionally, the Hackathon will be offering training sessions on some of the latest ASF projects.;20190504;;;20190505;Silversquare Europe;Brussels;BE;50.84074;4.36903;https://www.openstreetmap.org/node/2656943066;;50;open;;;https://www.openstreetmap.org/node/2656943066;No;yes
Das ist Netzpolitik!;;np15;https://netzpolitik.org/14np/;Conference, Community;netzpolitik;Die Konferenz: In 24 Stunden wird auf drei Bühnen in der großartigen Volksbühne Berlin und im Anschluss im Mensch Meier ein Rundumschlag über alle relevanten aktuellen Debatten der digitalen Welt stattfinden.;201909;;;201909;Volksbühne;Berlin;DE;52.5266;13.41175;https://www.openstreetmap.org/node/2212283250;20;?;;;;;;tba
